<?xml version="1.0" encoding="utf-8"?>
<markers>
    <marker name="AFONSO CLAUDIO - CUSTODIO LEITE RIBEIRO" lat="-20.073639" lng="-41.126434" cursos="Nenhum curso ofertado" type="N" num="0" />
    <marker name="AGUAS FORMOSAS - CENTRO" lat="-17.081198" lng="-40.932426" cursos="UFVJM - Física, UFVJM - Matemática, UFVJM - Administração Pública, UFVJM - Especialização em Geografia, UFVJM - Especialização em Ensino de Matemática, UFVJM - Especialização em Gestão Municipal, UFVJM - Ciência é 10!" type="O" num="7" />
    <marker name="ALEGRE - CENTRO" lat="-20.761923" lng="-41.536045" cursos="Nenhum curso ofertado" type="N" num="0" />
    <marker name="ALMENARA - CENTRO" lat="-16.176756" lng="-40.697433" cursos="IFNMG - Educação a Distância, IFNMG - Educação a Distância, UFVJM - Física, UFVJM - Matemática, UFVJM - Química, UFVJM - Especialização em Geografia, UFVJM - Especialização em Ensino de Matemática, UFVJM - Especialização em Gestão Municipal, UFVJM - Especialização em Ensino Didática e Prática de Ensino, Unimontes - Ciências Sociais, Unimontes - Geografia, Unimontes - Gestão Escolar, Unimontes - Linguística Aplicada ao Ensino de Português" type="O" num="13" />
    <marker name="ALTEROSA - CRUZEIRO" lat="-21.258394" lng="-46.140991" cursos="UFOP - Administração Pública, UFOP - Matemática, UFOP - Práticas Pedagógicas, UNIFAL - Gestão Pública Municipal, UNIFAL - Teorias e Práticas em Educação, UNIFEI - Licenciatura em Física" type="O" num="6" />
    <marker name="ANDRELÂNDIA - SANTOS DUMONT" lat="-21.745188" lng="-44.325184" cursos="UFLA - Educação Ambiental, UFSJ - Administração Pública, UFSJ - Computação aplicada a computação básica, UFSJ - Educação Empreendedora, UFSJ - Gestão Educacional, UFSJ - Informática para professores, UFSJ - Mídias na Educação, UFSJ - Práticas de Letramento e Alfabetização" type="O" num="8" />
    <marker name="ANGRA DOS REIS - JACUECANGA" lat="-22.993128" lng="-44.237186" cursos="Nenhum curso ofertado" type="N" num="0" />
    <marker name="APIAÍ - CENTRO" lat="-24.507523" lng="-48.844608" cursos="Nenhum curso ofertado" type="N" num="0" />
    <marker name="ARACRUZ - CENTRO" lat="-19.819809" lng="-40.274593" cursos="Nenhum curso ofertado" type="N" num="0" />
    <marker name="ARACUAI - CENTRO" lat="-16.851517" lng="-42.068382" cursos="IFNMG - Análise e Desenvolvimento de Sistemas, IFNMG - Pedagogia, IFNMG - Ciência é 10!, IFNMG - Educação a Distância, IFNMG - Educação Especial, IFNMG - Educação Infantil, UFVJM - Física, UFVJM - Matemática, UFVJM - Química, UFVJM - Administração Pública, UFVJM - Especialização em Geografia, UFVJM - Especialização em Ensino de Matemática" type="O" num="12" />
    <marker name="ARAGUARI - FATIMA" lat="-18.648849" lng="-48.207832" cursos="UFOP - Administração Pública, UFOP - Matemática, UFOP - Pedagogia, UFOP - Práticas Pedagógicas" type="O" num="4" />
    <marker name="ARARAS - CENTRO" lat="-22.363960" lng="-47.379005" cursos="UFSJ - Administração Pública, UFSJ - Educação Empreendedora, UFSJ - Engenharia de Segurança do Trabalho, UFSJ - Formação de Professores em Ciências Ambientais, UFSJ - Mídias na Educação, UFF - Tecnologias do ensino de matem?tica" type="O" num="6" />
    <marker name="ARAXA - SANTA RITA" lat="-19.590248" lng="-46.931011" cursos="UFMG - Licenciatura em Matemática, UFOP - Geografia, UFSJ - Engenharia de Segurança do Trabalho, UFSJ - Ensino de Filosofia no Ensino Médio, UFSJ - Ensino de Sociologia no Ensino Médio, UFSJ - Robótica e Educação, UFTM - Pedagogia Universitária, UFTM - Ciência 10!, UFU - Gestão Pública, UFU - Administração Pública, Unimontes - Gestão Ambiental, Unimontes - Educação Especial na Perspectiva Inclusiva, Unimontes - Gestão Ambiental, Unimontes - Gestão Escolar" type="O" num="14" />
    <marker name="BAIXO GUANDU - CENTRO" lat="-19.513290" lng="-41.011875" cursos="Nenhum curso ofertado" type="N" num="0" />
    <marker name="BALSAMO - CENTRO" lat="-20.733574" lng="-49.584530" cursos="UFU - Letras Espanhol" type="O" num="1" />
    <marker name="BAMBUI - CENTRO" lat="-20.010077" lng="-45.980835" cursos="UFLA - Gestão Pública, UFLA - Gestão Pública Municipal, UFLA - Pedagogia, UFLA - Pedagogia, UFSJ - Gestão em Saúde, UFSJ - Mídias na Educação, UFSJ - Práticas de Letramento e Alfabetização, UFU - Ciências 10, UFU - Letras Inglês, Unimontes - História e Cultura Afro-Brasileira e Africana, Unimontes - Supervisão Educacional" type="O" num="11" />
    <marker name="BARAO DE COCAIS - CIDADE NOVA" lat="-19.935083" lng="-43.469425" cursos="Nenhum curso ofertado" type="N" num="0" />
    <marker name="BARRA DO PIRAI - QUIMICA" lat="-22.462278" lng="-43.815956" cursos="Nenhum curso ofertado" type="N" num="0" />
    <marker name="BARRETOS - DERBYCLUB" lat="-20.534281" lng="-48.572857" cursos="UFSJ - Administração Pública, UFSJ - Educação Empreendedora, UFSJ - Gestão Pública Municipal, UFSJ - Informática para professores, UFU - Letras Inglês, UFF - Planejamento, Implementa??o e Gest?o de EaD, UFF - Tecnologias do ensino de matem?tica" type="O" num="7" />
    <marker name="BARROSO - SANTA MARIA" lat="-21.185904" lng="-43.969040" cursos="UFSJ - Administração Pública, UFSJ - Engenharia de Segurança do Trabalho, UFSJ - Gestão Pública Municipal, UFSJ - Licenciatura em Filosofia, UFSJ - Práticas de Letramento e Alfabetização" type="O" num="5" />
    <marker name="BARUERI - ALPHAVILLE EMPRESARIAL" lat="-23.485859" lng="-46.860912" cursos="UFOP - Geografia, UFOP - Práticas Pedagógicas" type="O" num="2" />
    <marker name="BELFORD ROXO - PARQUE COLONIAL" lat="-22.709576" lng="-43.341202" cursos="Nenhum curso ofertado" type="N" num="0" />
    <marker name="BICAS - CENTRO" lat="-21.718950" lng="-43.063320" cursos="IFSUDESTEMG - Licenciatura em Letras Habilitação: Português/Inglês, IFSUDESTEMG - Licenciatura em Letras Habilitação: Português/Inglês" type="O" num="2" />
    <marker name="BOA ESPERANCA - OZANAN" lat="-21.104761" lng="-45.558273" cursos="UFSJ - Formação de Professores em Ciências Ambientais, UFSJ - Gestão em Saúde, UFSJ - Práticas de Letramento e Alfabetização, UNIFAL - Gestão Pública Municipal, UNIFEI - Licenciatura em Física" type="O" num="5" />
    <marker name="BOCAIUVA - ALTEROSA" lat="-17.110588" lng="-43.813946" cursos="IFNMG - Administração Pública, IFNMG - Pedagogia, IFNMG - Letras Libras, IFNMG - Educação Especial, IFNMG - Educação Infantil, IFNMG - Gestão Pública, IFNMG - Gestão em Saúde, IFNMG - Atendimento Educacional Especializado, UFVJM - Matemática, UFVJM - Especialização em Geografia, Unimontes - Pedagogia, Unimontes - Gestão Ambiental, Unimontes - Gestão Escolar" type="O" num="13" />
    <marker name="BOM DESPACHO - ANA ROSA" lat="-19.748135" lng="-45.299171" cursos="UEMG - Pós-Graduação em Gestão Pública, UEMG - Pedagogia, UFLA - Letras Português, UFMG - Biblioteconomia, UFOP - Administração Pública, UFOP - Pedagogia, UFOP - Práticas Pedagógicas, UFSJ - Formação de Professores em Ciências Ambientais, UFSJ - Práticas de Letramento e Alfabetização" type="O" num="9" />
    <marker name="BOM JESUS DO ITABAPOANA - CENTRO" lat="-21.135525" lng="-41.671814" cursos="Nenhum curso ofertado" type="N" num="0" />
    <marker name="BOM JESUS DO NORTE - CENTRO" lat="-21.131229" lng="-41.676628" cursos="Nenhum curso ofertado" type="N" num="0" />
    <marker name="BOTUCATU - CENTRO" lat="-22.886562" lng="-48.444798" cursos="UFSJ - Ensino de Ciências - Ciência é 10!, UFSJ - Licenciatura em Filosofia, UNIRIO - Educa??o Especial-Defici?ncia Auditiva, UNIRIO - Educa??o Especial-Defici?ncia Mental, UNIRIO - Educa??o Especial-Defici?ncia Visual" type="O" num="5" />
    <marker name="BRAGANCA PAULISTA - UBERABA" lat="-22.934546" lng="-46.538193" cursos="UNIFAL - Gestão Pública Municipal, UNIFEI - Gestão Educacional, UNIFEI - Gestão de Pessoas" type="O" num="3" />
    <marker name="BRASILIA DE MINAS - CENTRO" lat="-16.212521" lng="-44.433262" cursos="Unimontes - Gestão Ambiental, Unimontes - Educação Especial na Perspectiva Inclusiva, Unimontes - História e Cultura Afro-Brasileira e Africana" type="O" num="3" />
    <marker name="BRUMADINHO - CENTRO" lat="-20.144466" lng="-44.201359" cursos="UFMG - Educação Ambiental, UFMG - Educação Ambiental, UFMG - Gestão de Instituições Federais de Ensino Superior - GIFES, UFMG - Sociologia e Psicanálise: Abordagens Transdiciplinares de Juventudes em Situação de Risco e Vulnerabilidades" type="O" num="4" />
    <marker name="BURITIS - VEREDAS" lat="-15.627087" lng="-46.435108" cursos="IFNMG - Análise e Desenvolvimento de Sistemas, IFNMG - Educação Infantil, UEMG - Pós-Graduação em Gestão Pública Municipal, UEMG - Administração Pública, Unimontes - Educação Física, Unimontes - Linguística Aplicada ao Ensino de Português" type="O" num="6" />
    <marker name="BURITIZEIRO - JARDIM DOS BURITIS" lat="-17.373926" lng="-44.965282" cursos="IFNMG - Letras Libras, IFNMG - Educação a Distância, IFNMG - Educação Especial, IFNMG - Ensino da Matemática para o Ensino Médio, Unimontes - Análise e Desenvolvimento de Sistemas, Unimontes - Gestão Ambiental" type="O" num="6" />
    <marker name="CACHOEIRO DE ITAPEMIRIM - DR. LUIZ TINOCO DA FONSECA - MORRO GRANDE" lat="-20.799839" lng="-41.156986" cursos="Nenhum curso ofertado" type="N" num="0" />
    <marker name="CAMBUI - CENTRO" lat="-22.612583" lng="-46.061325" cursos="UEMG - Pós-Graduação em Gestão Pública, UEMG - Administração Pública, UFLA - Letras Português, UFLA - Pedagogia, UFLA - Pedagogia, UNIFEI - Licenciatura em Física, UNIFEI - Tecnologias, Formaçao de professores e Sociedade" type="O" num="7" />
    <marker name="CAMPESTRE - NOSSA SENHORA APARECIDA" lat="-21.714590" lng="-46.240578" cursos="Nenhum curso ofertado" type="N" num="0" />
    <marker name="CAMPINAS - JARDIM PAINEIRAS" lat="-22.898039" lng="-47.034103" cursos="UFF - Planejamento, Implementa??o e Gest?o de EaD, UFF - Tecnologias do ensino de matem?tica, FIOCRUZ - Ativa??o de processos de mudan?a na forma?" type="O" num="3" />
    <marker name="CAMPO BELO - CIDADE MONTESA" lat="-20.905754" lng="-45.268177" cursos="UFOP - Geografia, UFSJ - Gestão em Saúde, UNIFAL - Teorias e Práticas em Educação" type="O" num="3" />
    <marker name="CAMPOS GERAIS - CENTRO" lat="-21.240349" lng="-45.759888" cursos="UFLA - Administração Pública" type="O" num="1" />
    <marker name="CANTAGALO - CENTRO" lat="-21.981783" lng="-42.365337" cursos="Nenhum curso ofertado" type="N" num="0" />
    <marker name="CARANDAÍ - ROSA RIO" lat="-20.952553" lng="-43.802204" cursos="UEMG - Pedagogia, UFLA - Produção de Material Didático para a Diversidade, UFSJ - Administração Pública, UFSJ - Ensino de Matemática no Ensino Médio, UFSJ - Gestão Pública" type="O" num="5" />
    <marker name="CARATINGA - DARIO GROSSI" lat="-19.778931" lng="-42.141373" cursos="UFOP - Administração Pública, UFOP - Geografia, UFOP - Matemática, UFOP - Práticas Pedagógicas, UFSJ - Gestão em Saúde, UFSJ - Gestão Pública Municipal" type="O" num="6" />
    <marker name="CARLOS CHAGAS - CENTRO" lat="-17.702417" lng="-40.762489" cursos="IFNMG - Análise e Desenvolvimento de Sistemas, IFNMG - Gestão Pública, IFNMG - Gestão em Saúde, IFNMG - Atendimento Educacional Especializado, UFOP - Administração Pública, Unimontes - Letras Português, Unimontes - Gestão de Saúde Pública, Unimontes - Educação Física Escolar" type="O" num="8" />
    <marker name="CARMO DO RIO CLARO - CENTRO" lat="-20.972336" lng="-46.119270" cursos="Nenhum curso ofertado" type="N" num="0" />
    <marker name="CARNEIRINHO - CENTRO" lat="-19.700022" lng="-50.686939" cursos="UFSJ - Computação aplicada a computação básica, UFSJ - Práticas de Letramento e Alfabetização, UFSJ - Promoção da Saúde de Crianças e Adolescentes no Contexto da Educação Básica, UFU - Gestão em Saúde, UFU - Administração Pública" type="O" num="5" />
    <marker name="CASTELO - VILA ISABEL" lat="-20.602337" lng="-41.209969" cursos="Nenhum curso ofertado" type="N" num="0" />
    <marker name="CATAGUASES - SANTA CLARA" lat="-21.412704" lng="-42.681332" cursos="IFSUDESTEMG - Licenciatura em Letras Habilitação: Português/Inglês, IFSUDESTEMG - Licenciatura em Letras Habilitação: Português/Inglês" type="O" num="2" />
    <marker name="CLAUDIO - PRAIA" lat="-20.447800" lng="-44.769463" cursos="Nenhum curso ofertado" type="N" num="0" />
    <marker name="COLATINA - ESPLANADA" lat="-19.550253" lng="-40.629360" cursos="Nenhum curso ofertado" type="N" num="0" />
    <marker name="CONCEICAO DA BARRA - CENTRO" lat="-18.589624" lng="-39.733387" cursos="Nenhum curso ofertado" type="N" num="0" />
    <marker name="CONCEICAO DO MATO DENTRO - CENTRO" lat="-19.026503" lng="-43.436840" cursos="Nenhum curso ofertado" type="N" num="0" />
    <marker name="CONFINS - CENTRO" lat="-19.624809" lng="-43.987904" cursos="UFMG - Educação Ambiental, UFMG - Educação Ambiental, UFMG - Educação em Ciências, UFMG - Ensino de Artes Visuais e Tecnologias Contemporâneas, UFMG - Formação de Educadores em Saúde, UFMG - Gestão Administrativa e Financeira de Escolas, UFMG - Gestão de Instituições Federais de Ensino Superior - GIFES, UFMG - Gestão Pública, UFMG - Gestão Pública em Saúde, UFMG - Gestão Pública Municipal, UFMG - Tecnologias Digitais e Educação 3.0, UFMG - Tecnologias Digitais e Educação 3.0, UFOP - Administração Pública, UFSJ - Gestão Educacional, UFSJ - Mídias na Educação, UFSJ - Mundos Nativos: Saberes, Cultura e História dos Povos Indígenas, UFU - Letras Espanhol" type="O" num="17" />
    <marker name="CONSELHEIRO LAFAIETE - SAO DIMAS" lat="-20.666361" lng="-43.809502" cursos="UFOP - Matemática, UFSJ - Educação Empreendedora, UFSJ - Engenharia de Segurança do Trabalho, UFSJ - Ensino de Ciências - Ciência é 10!, UFSJ - Gestão Educacional, UFSJ - Gestão Pública, UFSJ - Licenciatura em Filosofia, UFSJ - Mundos Nativos: Saberes, Cultura e História dos Povos Indígenas, UFSJ - Práticas de Letramento e Alfabetização" type="O" num="9" />
    <marker name="CONTAGEM - INCONFIDENTES" lat="-19.954504" lng="-44.037628" cursos="UFMG - Direitos Humanos, Juventude e Violência Urbana, UFMG - Educação em Ciências, UFMG - Especialização em Sociologia, UFMG - Formação de Educadores em Saúde, UFMG - Gestão Administrativa e Financeira de Escolas, UFMG - Gestão Pública, UFMG - Gestão Pública em Saúde, UFMG - Gestão Pública Municipal, UFMG - Sociologia e Psicanálise: Abordagens Transdiciplinares de Juventudes em Situação de Risco e Vulnerabilidades, UFMG - Biblioteconomia, UFMG - Matemática" type="O" num="11" />
    <marker name="CORINTO - CLARINDO DE PAIVA" lat="-18.369268" lng="-44.463291" cursos="IFNMG - Análise e Desenvolvimento de Sistemas, IFNMG - Ciência é 10!, IFNMG - Educação a Distância, IFNMG - Gestão Pública, IFNMG - Gestão em Saúde, UEMG - Pós-Graduação em Gestão Pública Municipal, UEMG - Administração Pública" type="O" num="7" />
    <marker name="COROMANDEL - SAO DOMINGOS" lat="-18.482285" lng="-47.197433" cursos="UFOP - Geografia, UFU - Ciências 10, UFU - Gestão Pública Municipal, UFU - Administração Pública" type="O" num="4" />
    <marker name="CRISTALIA - CENTRO" lat="-16.722288" lng="-42.865459" cursos="IFNMG - Administração Pública, IFNMG - Ciência é 10!, IFNMG - Gestão Pública, IFNMG - Gestão em Saúde, IFNMG - Ensino da Matemática para o Ensino Médio, UFVJM - Especialização em Geografia, UFVJM - Especialização em Ensino Didática e Prática de Ensino" type="O" num="7" />
    <marker name="CUBATAO - VILA COUTO" lat="-23.882139" lng="-46.426834" cursos="UFF - Planejamento, Implementa??o e Gest?o de EaD, UFF - Tecnologias do ensino de matem?tica" type="O" num="2" />
    <marker name="DIADEMA - CENTRO" lat="-23.689142" lng="-46.626907" cursos="UNIFEI - Tecnologias, Formaçao de professores e Sociedade" type="O" num="1" />
    <marker name="DIAMANTINA - CENTRO" lat="-18.241716" lng="-43.603226" cursos="Nenhum curso ofertado" type="N" num="0" />
    <marker name="DIVINOLANDIA DE MINAS - CENTRO" lat="-18.804302" lng="-42.615314" cursos="UFOP - Administração Pública, UFVJM - Física, UFVJM - Especialização em Geografia" type="O" num="3" />
    <marker name="DIVINOPOLIS - JARDIM BELVEDERE" lat="-20.171305" lng="-44.912975" cursos="UEMG - Pós-Graduação em Gestão Pública Municipal, UEMG - Administração Pública, UFLA - Gestão Pública, UFLA - Gestão Pública Municipal, UFLA - Administração Pública, UFLA - Pedagogia, UFLA - Pedagogia" type="O" num="7" />
    <marker name="DOMINGOS MARTINS - CENTRO" lat="-20.363680" lng="-40.659096" cursos="Nenhum curso ofertado" type="N" num="0" />
    <marker name="DUQUE DE CAXIAS - JARDIM 25 DE AGOSTO" lat="-22.793457" lng="-43.301483" cursos="Nenhum curso ofertado" type="N" num="0" />
    <marker name="DURANDE - CENTRO" lat="-20.201975" lng="-41.801369" cursos="Nenhum curso ofertado" type="N" num="0" />
    <marker name="ECOPORANGA - CENTRO" lat="-18.372465" lng="-40.828362" cursos="Nenhum curso ofertado" type="N" num="0" />
    <marker name="FORMIGA - ROSARIO" lat="-20.462420" lng="-45.439819" cursos="UFLA - Uso Educacional da Internet" type="O" num="1" />
    <marker name="FRANCA - CENTRO" lat="-20.545343" lng="-47.401291" cursos="UFMG - Licenciatura em Matemática, UFSJ - Administração Pública, UFSJ - Administração Pública, UFSJ - Ensino de Filosofia no Ensino Médio, UFSJ - Ensino de Matemática no Ensino Médio, UFSJ - Ensino de Sociologia no Ensino Médio, UFSJ - Licenciatura em Filosofia, UFSJ - Mídias na Educação, UFTM - Pedagogia, UFTM - Pedagogia Universitária, UFTM - Ciência 10!, UFU - Gestão Pública, UFU - Gestão Pública Municipal, UFU - Letras Espanhol, UFF - Planejamento, Implementa??o e Gest?o de EaD, UFF - Tecnologias do ensino de matem?tica, FIOCRUZ - Ativa??o de processos de mudan?a na forma?" type="O" num="17" />
    <marker name="FRANCISCO SA - CENTRO" lat="-16.478220" lng="-43.491879" cursos="IFNMG - Análise e Desenvolvimento de Sistemas, IFNMG - Educação Especial, Unimontes - Gestão Ambiental, Unimontes - História e Cultura Afro-Brasileira e Africana" type="O" num="4" />
    <marker name="FRUTAL - UNIVERSITARIO" lat="-20.018118" lng="-48.951771" cursos="UEMG - Pós-Graduação em Gestão Pública Municipal, UEMG - Administração Pública, UEMG - Pedagogia, UEMG - Pedagogia" type="O" num="4" />
    <marker name="GOVERNADOR VALADARES - CENTRO" lat="-18.851217" lng="-41.945000" cursos="UFMG - Direitos Humanos, Juventude e Violência Urbana, UFOP - Administração Pública" type="O" num="2" />
    <marker name="GUARULHOS - MACEDO" lat="-23.469521" lng="-46.519093" cursos="UNIFEI - Design Instrucional para EaD Virtual, UNIFEI - Tecnologias, Formaçao de professores e Sociedade, UFF - Planejamento, Implementa??o e Gest?o de EaD, UFF - Gest?o Log?stica e Infraestrutura" type="O" num="4" />
    <marker name="IGARAPAVA - VILA GOMES" lat="-20.035492" lng="-47.743225" cursos="UFU - Administração Pública" type="O" num="1" />
    <marker name="IGUABA GRANDE - CIDADE NOVA" lat="-22.839083" lng="-42.208878" cursos="Nenhum curso ofertado" type="N" num="0" />
    <marker name="ILICINEA - CENTRO" lat="-20.939585" lng="-45.825596" cursos="UFLA - Educação Ambiental, UFLA - Produção de Material Didático para a Diversidade, UFLA - Administração Pública, UFU - Ciências 10, UNIFAL - Teorias e Práticas em Educação, UNIFEI - Design Instrucional para EaD Virtual, Unimontes - Gestão de Saúde Pública, Unimontes - Educação Especial na Perspectiva Inclusiva, Unimontes - Educação Física Escolar, Unimontes - Linguística Aplicada ao Ensino de Português" type="O" num="10" />
    <marker name="IPANEMA - CENTRO" lat="-19.800638" lng="-41.717056" cursos="UEMG - Administração Pública" type="O" num="1" />
    <marker name="IPATINGA - BOM RETIRO" lat="-19.508783" lng="-42.565380" cursos="UFOP - Administração Pública, UFOP - Geografia, UFOP - Matemática, UFOP - Pedagogia, UFOP - Mídias na Educação, UFOP - Práticas Pedagógicas" type="O" num="6" />
    <marker name="ITABIRA - AMAZONAS" lat="-19.629587" lng="-43.222382" cursos="Nenhum curso ofertado" type="N" num="0" />
    <marker name="ITAGUAI - CENTRO" lat="-22.867397" lng="-43.775459" cursos="Nenhum curso ofertado" type="N" num="0" />
    <marker name="ITAMARANDIBA - FLORESTAL" lat="-17.853252" lng="-42.856651" cursos="IFNMG - Pedagogia, IFNMG - Educação Infantil, IFNMG - Gestão Pública, IFNMG - Gestão em Saúde, IFNMG - Ensino da Matemática para o Ensino Médio, UFVJM - Física, UFVJM - Matemática, UFVJM - Especialização em Geografia, UFVJM - Especialização em Ensino Didática e Prática de Ensino, Unimontes - Educação Física, Unimontes - Pedagogia, Unimontes - Gestão Ambiental" type="O" num="12" />
    <marker name="ITAMONTE - CENTRO" lat="-22.285593" lng="-44.870377" cursos="UFSJ - Administração Pública, UFSJ - Ensino de Filosofia no Ensino Médio, UFSJ - Ensino de Sociologia no Ensino Médio, UFSJ - Gestão Pública Municipal, UNIFAL - Teorias e Práticas em Educação, UNIFEI - Licenciatura em Física, Unimontes - Ciências Sociais, Unimontes - Letras Português, Unimontes - Análise e Desenvolvimento de Sistemas" type="O" num="9" />
    <marker name="ITANHANDU - CENTRO" lat="-22.297962" lng="-44.933651" cursos="Nenhum curso ofertado" type="N" num="0" />
    <marker name="ITAOCARA - CENTRO" lat="-21.670469" lng="-42.078617" cursos="Nenhum curso ofertado" type="N" num="0" />
    <marker name="ITAPECERICA DA SERRA - CENTRO" lat="-23.715408" lng="-46.851032" cursos="Nenhum curso ofertado" type="N" num="0" />
    <marker name="ITAPEMIRIM - CENTRO" lat="-21.009218" lng="-40.828304" cursos="Nenhum curso ofertado" type="N" num="0" />
    <marker name="ITAPERUNA - PRESIDENTE COSTA E SILVA" lat="-21.200319" lng="-41.897842" cursos="Nenhum curso ofertado" type="N" num="0" />
    <marker name="ITAPETININGA - TABOAOZINHO" lat="-23.571877" lng="-47.993877" cursos="UFF - Planejamento, Implementa??o e Gest?o de EaD, UFF - Tecnologias do ensino de matem?tica, FIOCRUZ - Educa??o permanente: sa?de e educ em uma perspectiva integradora, FIOCRUZ - Ativa??o de processos de mudan?a na forma?" type="O" num="4" />
    <marker name="ITAPEVI - COHAB/SETOR B" lat="-23.545500" lng="-46.931290" cursos="UFF - Planejamento, Implementa??o e Gest?o de EaD" type="O" num="1" />
    <marker name="ITUIUTABA - CENTRO" lat="-18.969351" lng="-49.461323" cursos="UFMG - Licenciatura em Matemática, UFTM - Pedagogia, UFTM - Pedagogia Universitária, UFTM - Ciência 10!, UFU - Gestão em Saúde, UFU - Gestão Pública Municipal, UFU - Administração Pública, UFU - Letras Inglês" type="O" num="8" />
    <marker name="IUNA - NITEROI" lat="-20.356445" lng="-41.533333" cursos="Nenhum curso ofertado" type="N" num="0" />
    <marker name="JABOTICATUBAS - SAO VICENTE" lat="-19.522205" lng="-43.730896" cursos="UEMG - Pós-Graduação em Gestão Pública, UEMG - Pós-Graduação em Gestão Pública, UEMG - Pós-Graduação em Gestão Pública Municipal, UEMG - Pós-Graduação em Gestão Pública Municipal, UEMG - Administração Pública, UEMG - Pedagogia, UEMG - Pedagogia, UFMG - Educação Ambiental, UFMG - Educação Ambiental, UFMG - Educação em Ciências, UFMG - Ensino de Artes Visuais e Tecnologias Contemporâneas, UFMG - Formação de Educadores em Saúde, UFMG - Tecnologias Digitais e Educação 3.0, UFMG - Tecnologias Digitais e Educação 3.0, UFMG - Biblioteconomia" type="O" num="15" />
    <marker name="JAIBA - CENTRO" lat="-15.344464" lng="-43.670040" cursos="IFNMG - Administração Pública, IFNMG - Gestão Pública, IFNMG - Gestão em Saúde, IFNMG - Ensino da Matemática para o Ensino Médio" type="O" num="4" />
    <marker name="JALES - COHAB JACB II" lat="-20.243006" lng="-50.555527" cursos="UFMG - Licenciatura em Matemática, UFTM - Pedagogia, UFTM - Ciência 10!, UFU - Gestão Pública, UFU - Administração Pública, UFU - Letras Inglês, UFF - Planejamento, Implementa??o e Gest?o de EaD, UFF - Tecnologias do ensino de matem?tica" type="O" num="8" />
    <marker name="JANAUBA - VEREDAS" lat="-15.793099" lng="-43.320995" cursos="IFNMG - Administração Pública, IFNMG - Análise e Desenvolvimento de Sistemas, IFNMG - Pedagogia, IFNMG - Educação Especial, IFNMG - Gestão Pública, IFNMG - Ensino da Matemática para o Ensino Médio, Unimontes - Geografia, Unimontes - Educação a Distância" type="O" num="8" />
    <marker name="JANDIRA - JARDIM EUROPA" lat="-23.541462" lng="-46.909050" cursos="UNIRIO - Educa??o Especial-Defici?ncia Auditiva, UNIRIO - Educa??o Especial-Defici?ncia Mental, UNIRIO - Educa??o Especial-Defici?ncia Visual, UFF - Planejamento, Implementa??o e Gest?o de EaD, UFF - Tecnologias do ensino de matem?tica" type="O" num="5" />
    <marker name="JANUARIA - VILA FATIMA" lat="-15.479386" lng="-44.366314" cursos="IFNMG - Administração Pública, IFNMG - Análise e Desenvolvimento de Sistemas, IFNMG - Pedagogia, IFNMG - Letras Libras, IFNMG - Ciência é 10!, IFNMG - Educação Especial, IFNMG - Gestão Pública, UFVJM - Física, UFVJM - Matemática, UFVJM - Química, UFVJM - Especialização em Geografia, UFVJM - Especialização em Gestão Municipal, Unimontes - Ciências Sociais, Unimontes - Educação a Distância, Unimontes - Gestão Escolar" type="O" num="15" />
    <marker name="JAU - CENTRO" lat="-22.295097" lng="-48.560188" cursos="UNIRIO - Educa??o Especial-Defici?ncia Mental, FIOCRUZ - Ativa??o de processos de mudan?a na forma?" type="O" num="2" />
    <marker name="JEQUITINHONHA - CENTRO" lat="-16.432543" lng="-41.003551" cursos="IFNMG - Administração Pública, IFNMG - Ciência é 10!, IFNMG - Gestão Pública, IFNMG - Gestão em Saúde, IFNMG - Ensino da Matemática para o Ensino Médio, Unimontes - Geografia, Unimontes - Análise e Desenvolvimento de Sistemas" type="O" num="7" />
    <marker name="JOAIMA - CENTRO" lat="-16.659040" lng="-41.028015" cursos="IFNMG - Análise e Desenvolvimento de Sistemas, IFNMG - Atendimento Educacional Especializado, UEMG - Pós-Graduação em Gestão Pública Municipal, UEMG - Administração Pública, Unimontes - História e Cultura Afro-Brasileira e Africana, Unimontes - Supervisão Educacional" type="O" num="6" />
    <marker name="JOAO MONLEVADE - VILA TANQUE" lat="-19.808725" lng="-43.171013" cursos="UFOP - Administração Pública, UFOP - Geografia, UFOP - Matemática, UFOP - Pedagogia, UFOP - Práticas Pedagógicas" type="O" num="5" />
    <marker name="JOAO PINHEIRO - CENTRO" lat="-17.745855" lng="-46.175102" cursos="IFNMG - Administração Pública, IFNMG - Letras Libras, IFNMG - Educação Especial, IFNMG - Gestão Pública, IFNMG - Gestão em Saúde" type="O" num="5" />
    <marker name="JUIZ DE FORA - LADEIRA" lat="-21.749052" lng="-43.350937" cursos="IFSUDESTEMG - Licenciatura em Letras Habilitação: Português/Inglês, IFSUDESTEMG - Licenciatura em Letras Habilitação: Português/Inglês, UFSJ - Educação Empreendedora, UFSJ - Licenciatura em Filosofia, UFSJ - Práticas de Letramento e Alfabetização" type="O" num="5" />
    <marker name="LAGAMAR - CENTRO" lat="-18.176147" lng="-46.807693" cursos="UFOP - Administração Pública, UFOP - Geografia, UFOP - Matemática, UFOP - Pedagogia, UFOP - Mídias na Educação, UFOP - Práticas Pedagógicas, UFU - Letras Inglês, Unimontes - Ciências Sociais, Unimontes - Letras Inglês, Unimontes - Linguística Aplicada ao Ensino de Português" type="O" num="10" />
    <marker name="LAGOA SANTA - SANTOS DUMONT" lat="-19.628456" lng="-43.890633" cursos="UFLA - Uso Educacional da Internet, UFMG - Direitos Humanos, Juventude e Violência Urbana, UFMG - Educação Ambiental, UFMG - Educação Ambiental, UFMG - Educação em Ciências, UFMG - Ensino de Artes Visuais e Tecnologias Contemporâneas, UFMG - Especialização em Sociologia, UFMG - Formação de Educadores em Saúde, UFMG - Gestão Administrativa e Financeira de Escolas, UFMG - Gestão de Instituições Federais de Ensino Superior - GIFES, UFMG - Gestão Pública, UFMG - Gestão Pública em Saúde, UFMG - Gestão Pública Municipal, UFMG - Matemática, UFOP - Pedagogia, UFOP - Mídias na Educação, UFSJ - Ensino de Filosofia no Ensino Médio, UFSJ - Licenciatura em Filosofia, UFSJ - Promoção da Saúde de Crianças e Adolescentes no Contexto da Educação Básica, UFSJ - Robótica e Educação, Unimontes - Educação Especial na Perspectiva Inclusiva, Unimontes - Gestão Escolar, Unimontes - Supervisão Educacional" type="O" num="23" />
    <marker name="LAVRAS - CENTRO" lat="-21.233463" lng="-44.997856" cursos="UFLA - Educação Ambiental, UFLA - Gestão Pública, UFLA - Gestão Pública Municipal, UFLA - Produção de Material Didático para a Diversidade, UFLA - Uso Educacional da Internet, UFLA - Administração Pública, UFLA - Pedagogia, UFLA - Pedagogia" type="O" num="8" />
    <marker name="LEOPOLDINA - FABRICA" lat="-21.536156" lng="-42.639717" cursos="IFSUDESTEMG - Licenciatura em Letras Habilitação: Português/Inglês, IFSUDESTEMG - Licenciatura em Letras Habilitação: Português/Inglês" type="O" num="2" />
    <marker name="LINHARES - NOVO HORIZONTE" lat="-19.381023" lng="-40.057568" cursos="Nenhum curso ofertado" type="N" num="0" />
    <marker name="MACAE - IMBOACICA" lat="-22.405567" lng="-41.844944" cursos="Nenhum curso ofertado" type="N" num="0" />
    <marker name="MAGE - CENTRO" lat="-22.655289" lng="-43.040619" cursos="Nenhum curso ofertado" type="N" num="0" />
    <marker name="MANTENA - CENTRO" lat="-18.787207" lng="-40.978714" cursos="IFNMG - Análise e Desenvolvimento de Sistemas, IFNMG - Gestão em Saúde, UFVJM - Matemática, UFVJM - Administração Pública, UFVJM - Especialização em Geografia, UFVJM - Especialização em Ensino Didática e Prática de Ensino, Unimontes - Pedagogia" type="O" num="7" />
    <marker name="MANTENOPOLIS - CENTRO" lat="-18.860643" lng="-41.122593" cursos="Nenhum curso ofertado" type="N" num="0" />
    <marker name="MARIANA - COLINA" lat="-20.364204" lng="-43.415581" cursos="UFMG - Biblioteconomia" type="O" num="1" />
    <marker name="MATÃO - CENTRO" lat="-21.607643" lng="-48.367977" cursos="UFSJ - Administração Pública, UFSJ - Computação aplicada a computação básica, UFSJ - Engenharia de Segurança do Trabalho, UFSJ - Ensino de Matemática no Ensino Médio, UFSJ - Gestão Pública, UFSJ - Promoção da Saúde de Crianças e Adolescentes no Contexto da Educação Básica, UFSJ - Robótica e Educação" type="O" num="7" />
    <marker name="MIGUEL PEREIRA - GOVERNADOR PORTELA" lat="-22.480837" lng="-43.494534" cursos="Nenhum curso ofertado" type="N" num="0" />
    <marker name="MIMOSO DO SUL - CHACARA DO CHAFARIZ" lat="-21.073099" lng="-41.356773" cursos="Nenhum curso ofertado" type="N" num="0" />
    <marker name="MINAS NOVAS - SANTA RITA" lat="-17.222612" lng="-42.580460" cursos="UFVJM - Física, UFVJM - Matemática, UFVJM - Administração Pública, UFVJM - Especialização em Geografia, UFVJM - Especialização em Ensino de Matemática, UFVJM - Especialização em Ensino Didática e Prática de Ensino" type="O" num="6" />
    <marker name="MIRANDOPOLIS - PAULICEIA" lat="-21.129084" lng="-51.095303" cursos="Nenhum curso ofertado" type="N" num="0" />
    <marker name="MONTANHA - CENTRO" lat="-18.126596" lng="-40.366798" cursos="Nenhum curso ofertado" type="N" num="0" />
    <marker name="MONTE AZUL - SAO JOSE" lat="-15.145947" lng="-42.877033" cursos="IFNMG - Educação Especial, Unimontes - Gestão de Saúde Pública, Unimontes - Educação Especial na Perspectiva Inclusiva, Unimontes - Supervisão Educacional" type="O" num="4" />
    <marker name="MONTE SIÃO - SÃO SIMÃO" lat="-22.424046" lng="-46.579556" cursos="UFLA - Gestão Pública, UFLA - Gestão Pública Municipal, UFLA - Letras Português, UFSJ - Computação aplicada a computação básica, UFSJ - Educação Empreendedora, UFSJ - Mídias na Educação, UNIFEI - Gestão Educacional, UNIFEI - Gestão de Pessoas" type="O" num="8" />
    <marker name="MONTES CLAROS - JK" lat="-16.695833" lng="-43.843781" cursos="IFNMG - Administração Pública, IFNMG - Análise e Desenvolvimento de Sistemas, IFNMG - Pedagogia, IFNMG - Ciência é 10!, IFNMG - Educação Especial, IFNMG - Gestão Pública, IFNMG - Gestão em Saúde, IFNMG - Ensino da Matemática para o Ensino Médio, IFNMG - Atendimento Educacional Especializado, UFMG - Sociologia e Psicanálise: Abordagens Transdiciplinares de Juventudes em Situação de Risco e Vulnerabilidades, UFMG - Biblioteconomia, UFOP - Matemática, UFOP - Mídias na Educação, Unimontes - Análise e Desenvolvimento de Sistemas, Unimontes - Gestão Ambiental, Unimontes - Educação a Distância, Unimontes - Educação Física Escolar" type="O" num="17" />
    <marker name="NANUQUE - ROMILDA RUAS" lat="-17.839535" lng="-40.360809" cursos="IFNMG - Pedagogia, IFNMG - Gestão em Saúde, UEMG - Pós-Graduação em Gestão Pública, UEMG - Pedagogia, UFVJM - Administração Pública, UFVJM - Especialização em Geografia, UFVJM - Especialização em Gestão Municipal, UFVJM - Ciência é 10!" type="O" num="8" />
    <marker name="NATIVIDADE - CENTRO" lat="-21.043266" lng="-41.978207" cursos="Nenhum curso ofertado" type="N" num="0" />
    <marker name="NITEROI - FONSECA" lat="-22.882904" lng="-43.082588" cursos="Nenhum curso ofertado" type="N" num="0" />
    <marker name="NOVA FRIBURGO - OLARIA" lat="-22.307287" lng="-42.543079" cursos="Nenhum curso ofertado" type="N" num="0" />
    <marker name="NOVA IGUACU - CENTRO" lat="-22.760740" lng="-43.450783" cursos="Nenhum curso ofertado" type="N" num="0" />
    <marker name="NOVA SERRANA - JARDINS DO LAGO" lat="-19.877850" lng="-44.990215" cursos="UFSJ - Administração Pública, UFSJ - Práticas de Letramento e Alfabetização, Unimontes - Educação Física, Unimontes - Análise e Desenvolvimento de Sistemas, Unimontes - Linguística Aplicada ao Ensino de Português" type="O" num="5" />
    <marker name="NOVA VENECIA - RUBIA" lat="-18.694956" lng="-40.391857" cursos="Nenhum curso ofertado" type="N" num="0" />
    <marker name="OSASCO - CENTRO" lat="-17.465908" lng="-41.900532" cursos="UNIRIO - Educa??o Especial-Defici?ncia Auditiva, UFF - Planejamento, Implementa??o e Gest?o de EaD" type="O" num="2" />
    <marker name="OURO PRETO - CENTRO" lat="-20.396606" lng="-43.501312" cursos="Nenhum curso ofertado" type="N" num="0" />
    <marker name="PADRE PARAISO - CORONEL OLINTO VIEIRA" lat="-17.076826" lng="-41.480938" cursos="IFNMG - Administração Pública, UFVJM - Matemática, UFVJM - Administração Pública, UFVJM - Especialização em Geografia, UFVJM - Especialização em Gestão Municipal, UFVJM - Ciência é 10!" type="O" num="6" />
    <marker name="PAPAGAIOS - VASCO LOPES" lat="-19.446856" lng="-44.741768" cursos="Nenhum curso ofertado" type="N" num="0" />
    <marker name="PARACAMBI - FABRICA" lat="-22.599680" lng="-43.705997" cursos="Nenhum curso ofertado" type="N" num="0" />
    <marker name="PARACATU - CENTRO" lat="-17.238247" lng="-46.883026" cursos="IFNMG - Educação Infantil, UFU - Ciências 10" type="O" num="2" />
    <marker name="PARAISÓPOLIS - JARDIM AEROPORTO" lat="-22.556343" lng="-45.776169" cursos="UFSJ - Computação aplicada a computação básica, UFSJ - Ensino de Ciências - Ciência é 10!, UFSJ - Ensino de Matemática no Ensino Médio, UFSJ - Gestão Pública, UNIFEI - Gestão Educacional, UNIFEI - Gestão de Pessoas" type="O" num="6" />
    <marker name="PASSOS - BELO HORIZONTE" lat="-20.724798" lng="-46.609253" cursos="UFLA - Uso Educacional da Internet, UFSJ - Educação Empreendedora, UFSJ - Mundos Nativos: Saberes, Cultura e História dos Povos Indígenas, UNIFAL - Teorias e Práticas em Educação, Unimontes - Educação Física Escolar, Unimontes - Supervisão Educacional" type="O" num="6" />
    <marker name="PATOS DE MINAS - CENTRO" lat="-18.579613" lng="-46.525841" cursos="UFSJ - Ensino de Matemática no Ensino Médio, UFU - Gestão em Saúde, UFU - Gestão Pública, UFU - Administração Pública" type="O" num="4" />
    <marker name="PEDRA AZUL - CENTRO" lat="-15.999364" lng="-41.280121" cursos="IFNMG - Administração Pública, IFNMG - Pedagogia, IFNMG - Educação Especial, IFNMG - Ensino da Matemática para o Ensino Médio, UFVJM - Matemática, UFVJM - Administração Pública, UFVJM - Especialização em Geografia, Unimontes - Letras Inglês, Unimontes - Pedagogia, Unimontes - História e Cultura Afro-Brasileira e Africana" type="O" num="10" />
    <marker name="PERUIBE - BALNEARIO STELLA MARIS" lat="-24.321329" lng="-47.000229" cursos="Nenhum curso ofertado" type="N" num="0" />
    <marker name="PESCADOR - ALVORADA" lat="-18.354570" lng="-41.593750" cursos="Nenhum curso ofertado" type="N" num="0" />
    <marker name="PETRÓPOLIS - CASCATINHA" lat="-22.479130" lng="-43.154747" cursos="Nenhum curso ofertado" type="N" num="0" />
    <marker name="PINHEIROS - CENTRO" lat="-18.408180" lng="-40.209751" cursos="Nenhum curso ofertado" type="N" num="0" />
    <marker name="PIRAI - CENTRO" lat="-22.628124" lng="-43.903187" cursos="Nenhum curso ofertado" type="N" num="0" />
    <marker name="PIUMA - CENTRO" lat="-20.836323" lng="-40.725391" cursos="UFU - Letras Espanhol" type="O" num="1" />
    <marker name="POMPEU - PARAÍSO" lat="-19.238251" lng="-45.008236" cursos="IFNMG - Pedagogia, UFSJ - Gestão Educacional, UFSJ - Informática para professores, Unimontes - Ciências Sociais, Unimontes - Educação Física" type="O" num="5" />
    <marker name="PRIMAVERA DO LESTE - CENTRO" lat="-15.531062" lng="-54.286774" cursos="UFU - Ciências 10" type="O" num="1" />
    <marker name="RESENDE - CENTRO" lat="-22.470337" lng="-44.447548" cursos="Nenhum curso ofertado" type="N" num="0" />
    <marker name="RIO BONITO - PRACA DO CRUZEIRO" lat="-22.710737" lng="-42.644955" cursos="Nenhum curso ofertado" type="N" num="0" />
    <marker name="RIO DAS FLORES - CENTRO" lat="-22.165234" lng="-43.584679" cursos="Nenhum curso ofertado" type="N" num="0" />
    <marker name="RIO DAS OSTRAS - ZONA ESPECIAL DE NEGOCIOS - ZEN" lat="-22.423241" lng="-41.865116" cursos="Nenhum curso ofertado" type="N" num="0" />
    <marker name="RIO DE JANEIRO - CAMPO GRANDE" lat="-22.899397" lng="-43.578693" cursos="Nenhum curso ofertado" type="N" num="0" />
    <marker name="RIO DE JANEIRO - SÃO CONRADO" lat="-22.992928" lng="-43.251827" cursos="Nenhum curso ofertado" type="N" num="0" />
    <marker name="RIO PARANAIBA - CENTRO" lat="-19.195101" lng="-46.246670" cursos="Nenhum curso ofertado" type="N" num="0" />
    <marker name="RIO PARDO DE MINAS - CENTRO" lat="-15.614417" lng="-42.538700" cursos="Unimontes - Geografia, Unimontes - Letras Inglês, Unimontes - Pedagogia, Unimontes - Educação a Distância" type="O" num="4" />
    <marker name="SABARÁ - CENTRO" lat="-19.893375" lng="-43.812267" cursos="UFMG - Direitos Humanos, Juventude e Violência Urbana, UFMG - Educação em Ciências, UFMG - Ensino de Artes Visuais e Tecnologias Contemporâneas, UFMG - Especialização em Sociologia, UFMG - Gestão Administrativa e Financeira de Escolas, UFMG - Gestão de Instituições Federais de Ensino Superior - GIFES, UFMG - Gestão Pública, UFMG - Gestão Pública em Saúde, UFMG - Gestão Pública Municipal, UFMG - Sociologia e Psicanálise: Abordagens Transdiciplinares de Juventudes em Situação de Risco e Vulnerabilidades, UFMG - Tecnologias Digitais e Educação 3.0, UFMG - Tecnologias Digitais e Educação 3.0, UFMG - Matemática, UFSJ - Administração Pública, UFSJ - Educação Empreendedora, UFSJ - Ensino de Sociologia no Ensino Médio, UFSJ - Formação de Professores em Ciências Ambientais, UFSJ - Mundos Nativos: Saberes, Cultura e História dos Povos Indígenas, UFSJ - Promoção da Saúde de Crianças e Adolescentes no Contexto da Educação Básica, UFSJ - Robótica e Educação" type="O" num="20" />
    <marker name="SALINAS - CENTRO" lat="-16.172495" lng="-42.289295" cursos="IFNMG - Gestão Pública, UFOP - Administração Pública, UFOP - Geografia, UFOP - Mídias na Educação, Unimontes - Letras Português, Unimontes - Gestão de Saúde Pública, Unimontes - Educação a Distância, Unimontes - Gestão Ambiental" type="O" num="8" />
    <marker name="SANTA ISABEL - JARDIM NOVO ÉDEN" lat="-23.338837" lng="-46.229462" cursos="Nenhum curso ofertado" type="N" num="0" />
    <marker name="SANTA LEOPOLDINA - CENTRO" lat="-20.107304" lng="-40.527088" cursos="Nenhum curso ofertado" type="N" num="0" />
    <marker name="SANTA MARIA MADALENA - CENTRO" lat="-21.952721" lng="-42.010674" cursos="Nenhum curso ofertado" type="N" num="0" />
    <marker name="SANTA RITA DE CALDAS - CENTRO" lat="-22.028128" lng="-46.338356" cursos="UFOP - Geografia, UFSJ - Ensino de Ciências - Ciência é 10!, UFSJ - Ensino de Filosofia no Ensino Médio, UFSJ - Ensino de Sociologia no Ensino Médio, UFSJ - Mídias na Educação, UNIFEI - Gestão Educacional, UNIFEI - Gestão de Pessoas, UNIFEI - Design Instrucional para EaD Virtual, UNIFEI - Tecnologias, Formaçao de professores e Sociedade" type="O" num="9" />
    <marker name="SANTA RITA DO SAPUCAI - CENTRO" lat="-22.256290" lng="-45.703209" cursos="Nenhum curso ofertado" type="N" num="0" />
    <marker name="SANTA TERESA - CENTRO" lat="-19.933311" lng="-40.599964" cursos="Nenhum curso ofertado" type="N" num="0" />
    <marker name="SANTOS - VILA NOVA" lat="-23.940149" lng="-46.324032" cursos="UFF - Planejamento, Implementa??o e Gest?o de EaD, UFF - Tecnologias do ensino de matem?tica, FIOCRUZ - Gest?o em Sa?de" type="O" num="3" />
    <marker name="SAO CARLOS - VILA NERY" lat="-22.013258" lng="-47.883076" cursos="UFU - Gestão em Saúde, UFU - Gestão Pública Municipal, UFU - Administração Pública" type="O" num="3" />
    <marker name="SAO FIDELIS - DIRLEY PERLINGEIRO DE ABREU" lat="-21.652998" lng="-41.741070" cursos="Nenhum curso ofertado" type="N" num="0" />
    <marker name="SAO FRANCISCO DE ITABAPOANA - CENTRO" lat="-21.477531" lng="-41.114262" cursos="Nenhum curso ofertado" type="N" num="0" />
    <marker name="SAO GONCALO - GRADIM" lat="-22.827831" lng="-43.090996" cursos="Nenhum curso ofertado" type="N" num="0" />
    <marker name="SAO JOAO DA BOA VISTA - CENTRO" lat="-21.969042" lng="-46.794304" cursos="UFOP - Administração Pública, UFSJ - Computação aplicada a computação básica, UFSJ - Educação Empreendedora, UFSJ - Ensino de Ciências - Ciência é 10!, UFSJ - Ensino de Filosofia no Ensino Médio, UFSJ - Ensino de Sociologia no Ensino Médio, UFSJ - Licenciatura em Filosofia, UFSJ - Mídias na Educação, UFSJ - Robótica e Educação, UNIFAL - Gestão Pública Municipal, UNIFAL - Teorias e Práticas em Educação, UNIRIO - Educa??o Especial-Defici?ncia Auditiva, UNIRIO - Educa??o Especial-Defici?ncia Mental, UNIRIO - Educa??o Especial-Defici?ncia Visual, UFF - Planejamento, Implementa??o e Gest?o de EaD, UFF - Tecnologias do ensino de matem?tica" type="O" num="16" />
    <marker name="SAO JOAO DA PONTE - INDUSTRIAL" lat="-15.931557" lng="-44.007061" cursos="IFNMG - Administração Pública, IFNMG - Análise e Desenvolvimento de Sistemas, IFNMG - Educação Especial, IFNMG - Gestão Pública, IFNMG - Atendimento Educacional Especializado, Unimontes - Geografia" type="O" num="6" />
    <marker name="SAO JOAO DEL REI - TIJUCO" lat="-21.139509" lng="-44.269543" cursos="UFSJ - Administração Pública, UFSJ - Administração Pública, UFSJ - Computação aplicada a computação básica, UFSJ - Ensino de Matemática no Ensino Médio, UFSJ - Gestão Educacional, UFSJ - Gestão em Saúde, UFSJ - Mídias na Educação, UFSJ - Mundos Nativos: Saberes, Cultura e História dos Povos Indígenas, UFSJ - Práticas de Letramento e Alfabetização, UFSJ - Promoção da Saúde de Crianças e Adolescentes no Contexto da Educação Básica, UFSJ - Robótica e Educação, UNIFEI - Design Instrucional para EaD Virtual" type="O" num="12" />
    <marker name="SAO JOSE DO RIO PRETO - VILA IMPERIAL" lat="-20.817039" lng="-49.387917" cursos="UFF - Planejamento, Implementa??o e Gest?o de EaD, UFF - Tecnologias do ensino de matem?tica, FIOCRUZ - Educa??o permanente: sa?de e educ em uma perspectiva integradora" type="O" num="3" />
    <marker name="SAO JOSE DO VALE DO RIO PRETO - NOVO CENTRO" lat="-22.147398" lng="-42.916817" cursos="Nenhum curso ofertado" type="N" num="0" />
    <marker name="SAO JOSE DOS CAMPOS - SANTANA" lat="-23.170095" lng="-45.890545" cursos="UFOP - Administração Pública, UNIFEI - Licenciatura em Física, UNIFEI - Gestão Educacional, UNIFEI - Gestão de Pessoas, UNIFEI - Tecnologias, Formaçao de professores e Sociedade" type="O" num="5" />
    <marker name="SAO MATEUS - CARAPINA" lat="-18.722195" lng="-39.851997" cursos="Nenhum curso ofertado" type="N" num="0" />
    <marker name="SAO PAULO - BALNEARIO SAO FRANCISCO" lat="-23.704718" lng="-46.644054" cursos="UFF - Planejamento, Implementa??o e Gest?o de EaD, UFF - Tecnologias do ensino de matem?tica" type="O" num="2" />
    <marker name="SAO PAULO - BARRO BRANCO" lat="-23.767633" lng="-46.680733" cursos="UFF - Planejamento, Implementa??o e Gest?o de EaD" type="O" num="1" />
    <marker name="SAO PAULO - CANGAIBA" lat="-23.498575" lng="-46.496288" cursos="UFF - Planejamento, Implementa??o e Gest?o de EaD, UFF - Tecnologias do ensino de matem?tica" type="O" num="2" />
    <marker name="SAO PAULO - CAPAO REDONDO" lat="-23.674841" lng="-46.769970" cursos="UFF - Planejamento, Implementa??o e Gest?o de EaD" type="O" num="1" />
    <marker name="SAO PAULO - CHACARA DONA OLIVIA" lat="-23.513346" lng="-46.389881" cursos="UFF - Planejamento, Implementa??o e Gest?o de EaD, UFF - Tecnologias do ensino de matem?tica" type="O" num="2" />
    <marker name="SAO PAULO - CIDADE ANTONIO ESTEVAO DE CARVALHO" lat="-23.521435" lng="-46.457031" cursos="UFF - Planejamento, Implementa??o e Gest?o de EaD" type="O" num="1" />
    <marker name="SAO PAULO - CIDADE TIRADENTES" lat="-23.594217" lng="-46.406452" cursos="UFF - Planejamento, Implementa??o e Gest?o de EaD, UFF - Tecnologias do ensino de matem?tica" type="O" num="2" />
    <marker name="SAO PAULO - INTERLAGOS" lat="-23.710882" lng="-46.704281" cursos="UFF - Planejamento, Implementa??o e Gest?o de EaD" type="O" num="1" />
    <marker name="SAO PAULO - JARAGUA" lat="-23.481621" lng="-46.762764" cursos="Nenhum curso ofertado" type="N" num="0" />
    <marker name="SAO PAULO - JARDIM ANGELA" lat="-23.735744" lng="-46.780556" cursos="Nenhum curso ofertado" type="N" num="0" />
    <marker name="SAO PAULO - JARDIM ESMERALDA" lat="-23.583139" lng="-46.750046" cursos="UFF - Planejamento, Implementa??o e Gest?o de EaD" type="O" num="1" />
    <marker name="SAO PAULO - JARDIM GUAPIRA" lat="-23.457123" lng="-46.584728" cursos="UFF - Planejamento, Implementa??o e Gest?o de EaD, UFF - Tecnologias do ensino de matem?tica" type="O" num="2" />
    <marker name="SAO PAULO - JARDIM MIRANGAIA" lat="-23.495047" lng="-46.412392" cursos="Nenhum curso ofertado" type="N" num="0" />
    <marker name="SAO PAULO - JARDIM MORENO" lat="-23.538769" lng="-46.423248" cursos="UFF - Planejamento, Implementa??o e Gest?o de EaD" type="O" num="1" />
    <marker name="SAO PAULO - JARDIM NOVO PARELHEIROS" lat="-23.828243" lng="-46.723598" cursos="UFF - Planejamento, Implementa??o e Gest?o de EaD, UFF - Tecnologias do ensino de matem?tica" type="O" num="2" />
    <marker name="SAO PAULO - JARDIM PAULISTANO (ZONA NORTE)" lat="-23.462467" lng="-46.712151" cursos="UFF - Planejamento, Implementa??o e Gest?o de EaD, UFF - Tecnologias do ensino de matem?tica" type="O" num="2" />
    <marker name="SAO PAULO - JARDIM PROMORAR" lat="-23.620356" lng="-46.456467" cursos="Nenhum curso ofertado" type="N" num="0" />
    <marker name="SAO PAULO - JARDIM SANTA LUCRECIA" lat="-23.436312" lng="-46.750458" cursos="UFF - Planejamento, Implementa??o e Gest?o de EaD" type="O" num="1" />
    <marker name="SAO PAULO - JARDIM SAO CARLOS (ZONA LESTE)" lat="-23.510035" lng="-46.472980" cursos="UFF - Planejamento, Implementa??o e Gest?o de EaD" type="O" num="1" />
    <marker name="SAO PAULO - JARDIM SAO ROBERTO" lat="-23.621481" lng="-46.500957" cursos="UFF - Planejamento, Implementa??o e Gest?o de EaD" type="O" num="1" />
    <marker name="SAO PAULO - PARAISOPOLIS" lat="-23.622561" lng="-46.727833" cursos="UFF - Planejamento, Implementa??o e Gest?o de EaD, UFF - Tecnologias do ensino de matem?tica" type="O" num="2" />
    <marker name="SAO PAULO - PARQUE BOA ESPERANCA" lat="-23.604183" lng="-46.449081" cursos="Nenhum curso ofertado" type="N" num="0" />
    <marker name="SAO PAULO - PARQUE BRISTOL" lat="-23.643587" lng="-46.608974" cursos="UFF - Planejamento, Implementa??o e Gest?o de EaD, UFF - Tecnologias do ensino de matem?tica" type="O" num="2" />
    <marker name="SAO PAULO - PARQUE RESIDENCIAL COCAIA" lat="-23.744358" lng="-46.660442" cursos="Nenhum curso ofertado" type="N" num="0" />
    <marker name="SAO PAULO - PENHA" lat="-23.517742" lng="-46.554626" cursos="Nenhum curso ofertado" type="N" num="0" />
    <marker name="SAO PAULO - PIRAJUSSARA" lat="-23.637217" lng="-46.779736" cursos="UFF - Planejamento, Implementa??o e Gest?o de EaD" type="O" num="1" />
    <marker name="SAO PAULO - SAO JOAO CLIMACO" lat="-23.621292" lng="-46.583427" cursos="UFF - Planejamento, Implementa??o e Gest?o de EaD, UFF - Tecnologias do ensino de matem?tica" type="O" num="2" />
    <marker name="SAO PAULO - VILA ARICANDUVA" lat="-23.570477" lng="-46.503391" cursos="UFF - Planejamento, Implementa??o e Gest?o de EaD, UFF - Tecnologias do ensino de matem?tica" type="O" num="2" />
    <marker name="SAO PAULO - VILA DAS BELEZAS" lat="-23.646406" lng="-46.744343" cursos="UFF - Planejamento, Implementa??o e Gest?o de EaD" type="O" num="1" />
    <marker name="SAO PAULO - VILA FORMOSA" lat="-23.580908" lng="-46.523636" cursos="Nenhum curso ofertado" type="N" num="0" />
    <marker name="SAO PAULO - VILA MALVINA" lat="-23.406082" lng="-46.751217" cursos="Nenhum curso ofertado" type="N" num="0" />
    <marker name="SAO PAULO - VILA NOVA CACHOEIRINHA" lat="-23.475058" lng="-46.668842" cursos="Nenhum curso ofertado" type="N" num="0" />
    <marker name="SAO PEDRO DA ALDEIA - NOVA SAO PEDRO DA ALDEIA" lat="-22.838160" lng="-42.096752" cursos="Nenhum curso ofertado" type="N" num="0" />
    <marker name="SAO SEBASTIAO DO PARAISO - LAGOINHA" lat="-20.921032" lng="-46.977280" cursos="UFLA - Educação Ambiental, UFLA - Gestão Pública, UFLA - Gestão Pública Municipal, UFLA - Produção de Material Didático para a Diversidade, UFLA - Uso Educacional da Internet, UFLA - Administração Pública, UFLA - Letras Português, UFLA - Pedagogia, UFLA - Pedagogia, UFSJ - Engenharia de Segurança do Trabalho, UFSJ - Informática para professores, UFU - Letras Espanhol, UFU - Letras Inglês, UNIFAL - Gestão Pública Municipal, UNIFAL - Teorias e Práticas em Educação, Unimontes - Educação Física, Unimontes - Letras Português, Unimontes - Gestão Ambiental" type="O" num="18" />
    <marker name="SAQUAREMA - RIO DE AREIA" lat="-22.876350" lng="-42.465847" cursos="Nenhum curso ofertado" type="N" num="0" />
    <marker name="SERRANA - JARDIM CRISTINA" lat="-21.200794" lng="-47.596981" cursos="UFSJ - Administração Pública, UFSJ - Educação Empreendedora, UFSJ - Ensino de Filosofia no Ensino Médio, UFSJ - Gestão em Saúde, UFSJ - Gestão Pública, UFSJ - Mídias na Educação, UNIFEI - Design Instrucional para EaD Virtual" type="O" num="7" />
    <marker name="SETE LAGOAS - DISTRITO INDUSTRIAL" lat="-19.457670" lng="-44.210957" cursos="UFMG - Direitos Humanos, Juventude e Violência Urbana, UFMG - Especialização em Sociologia, UFMG - Formação de Educadores em Saúde, UFMG - Tecnologias Digitais e Educação 3.0, UFMG - Tecnologias Digitais e Educação 3.0, UFMG - Matemática, UFSJ - Administração Pública, UFSJ - Administração Pública, UFSJ - Formação de Professores em Ciências Ambientais, UFSJ - Gestão Pública Municipal" type="O" num="10" />
    <marker name="TAIOBEIRAS - NOSSA SENHORA DE FATIMA" lat="-15.821432" lng="-42.225636" cursos="IFNMG - Educação Especial, IFNMG - Gestão em Saúde, IFNMG - Atendimento Educacional Especializado, UEMG - Pós-Graduação em Gestão Pública, UEMG - Pedagogia, UFVJM - Física, UFVJM - Matemática, UFVJM - Química, UFVJM - Administração Pública, UFVJM - Especialização em Geografia, UFVJM - Especialização em Ensino de Matemática, UFVJM - Especialização em Gestão Municipal, UFVJM - Especialização em Ensino Didática e Prática de Ensino, UFVJM - Ciência é 10!, Unimontes - Letras Português" type="O" num="15" />
    <marker name="TARUMA - CENTRO" lat="-22.745070" lng="-50.578224" cursos="UFF - Planejamento, Implementa??o e Gest?o de EaD, UFF - Tecnologias do ensino de matem?tica" type="O" num="2" />
    <marker name="TEOFILO OTONI - VILA SANTA CLARA" lat="-17.872408" lng="-41.487129" cursos="IFNMG - Análise e Desenvolvimento de Sistemas, IFNMG - Pedagogia, IFNMG - Gestão em Saúde, UFVJM - Física, UFVJM - Química, UFVJM - Especialização em Geografia, UFVJM - Especialização em Ensino de Matemática, UFVJM - Especialização em Gestão Municipal, UFVJM - Ciência é 10!" type="O" num="9" />
    <marker name="TIMOTEO - CENTRO NORTE" lat="-19.538368" lng="-42.646313" cursos="UFOP - Administração Pública, UFOP - Práticas Pedagógicas, UFSJ - Ensino de Sociologia no Ensino Médio, UFSJ - Gestão Pública Municipal, UFSJ - Licenciatura em Filosofia" type="O" num="5" />
    <marker name="TIRADENTES - PARQUE DAS ABELHAS" lat="-21.108143" lng="-44.166458" cursos="UFSJ - Formação de Professores em Ciências Ambientais, UFSJ - Gestão Pública" type="O" num="2" />
    <marker name="TRÊS MARIAS - JOAQUIM DE LIMA" lat="-18.213243" lng="-45.234901" cursos="UFOP - Administração Pública, UFOP - Geografia, UFOP - Matemática, UFOP - Pedagogia" type="O" num="4" />
    <marker name="TRES RIOS - CENTRO" lat="-22.118973" lng="-43.206497" cursos="Nenhum curso ofertado" type="N" num="0" />
    <marker name="TURMALINA - VILA NOVA" lat="-17.285423" lng="-42.718044" cursos="IFNMG - Letras Libras, IFNMG - Educação Especial, IFNMG - Educação Infantil, UFOP - Mídias na Educação, UFVJM - Matemática, UFVJM - Administração Pública, UFVJM - Especialização em Geografia, UFVJM - Especialização em Gestão Municipal, UFVJM - Especialização em Ensino Didática e Prática de Ensino" type="O" num="9" />
    <marker name="UBA - TRIANGULO" lat="-21.124079" lng="-42.918568" cursos="IFSUDESTEMG - Licenciatura em Letras Habilitação: Português/Inglês, IFSUDESTEMG - Licenciatura em Letras Habilitação: Português/Inglês, UEMG - Pedagogia, UEMG - Pedagogia" type="O" num="4" />
    <marker name="UBERABA - MERCES" lat="-19.736589" lng="-47.947521" cursos="UFU - Gestão em Saúde, UFU - Gestão Pública, UFU - Administração Pública" type="O" num="3" />
    <marker name="UBERLANDIA - BRASIL" lat="-18.888651" lng="-48.260956" cursos="UFTM - Pedagogia, UFTM - Pedagogia Universitária, UFU - Gestão em Saúde, UFU - Gestão Pública Municipal, UFU - Administração Pública" type="O" num="5" />
    <marker name="UFMG - PAMPULHA" lat="-19.861996" lng="-43.959126" cursos="UFMG - Biologia, UFMG - Direitos Humanos, Juventude e Violência Urbana, UFMG - Educação Ambiental, UFMG - Educação Ambiental, UFMG - Educação em Ciências, UFMG - Ensino de Artes Visuais e Tecnologias Contemporâneas, UFMG - Especialização em Sociologia, UFMG - Formação de Educadores em Saúde, UFMG - Gestão Administrativa e Financeira de Escolas, UFMG - Gestão de Instituições Federais de Ensino Superior - GIFES, UFMG - Gestão Pública, UFMG - Gestão Pública em Saúde, UFMG - Gestão Pública Municipal, UFMG - Residência Docente para Formação de Educadores da Educação Básica, UFMG - Residência Docente para Formação de Educadores da Educação Básica, UFMG - Sociologia e Psicanálise: Abordagens Transdiciplinares de Juventudes em Situação de Risco e Vulnerabilidades, UFMG - Tecnologias Digitais e Educação 3.0, UFMG - Tecnologias Digitais e Educação 3.0, UFMG - Biologia, UFMG - Matemática" type="O" num="20" />
    <marker name="URUCUIA - CENTRO" lat="-16.125689" lng="-45.731873" cursos="IFNMG - Gestão Pública, Unimontes - Letras Inglês" type="O" num="2" />
    <marker name="VARGEM ALTA - CENTRO" lat="-20.668945" lng="-41.004791" cursos="Nenhum curso ofertado" type="N" num="0" />
    <marker name="VARGINHA - VILA BUENO" lat="-21.563663" lng="-45.442593" cursos="UFLA - Educação Ambiental, UFLA - Produção de Material Didático para a Diversidade, UFLA - Letras Português, UNIFAL - Gestão Pública Municipal" type="O" num="4" />
    <marker name="VARZEA DA PALMA - CENTRO" lat="-17.593222" lng="-44.733883" cursos="IFNMG - Análise e Desenvolvimento de Sistemas, IFNMG - Educação Especial, UEMG - Pós-Graduação em Gestão Pública, Unimontes - Gestão de Saúde Pública, Unimontes - Educação Física Escolar" type="O" num="5" />
    <marker name="VENDA NOVA DO IMIGRANTE - CENTRO" lat="-20.329836" lng="-41.131672" cursos="Nenhum curso ofertado" type="N" num="0" />
    <marker name="VILA VELHA - CENTRO" lat="-20.331928" lng="-40.291328" cursos="Nenhum curso ofertado" type="N" num="0" />
    <marker name="VIRADOURO - JARDIM DAS PALMEIRAS" lat="-20.862408" lng="-48.287876" cursos="Nenhum curso ofertado" type="N" num="0" />
    <marker name="VITORIA - TABUAZEIRO" lat="-20.300344" lng="-40.323414" cursos="UFU - Letras Inglês" type="O" num="1" />
    <marker name="VOLTA REDONDA - JARDIM PARAIBA" lat="-22.508434" lng="-44.096306" cursos="Nenhum curso ofertado" type="N" num="0" />
    <marker name="VOTORANTIM - CENTRO" lat="-23.542412" lng="-47.445717" cursos="UFSJ - Administração Pública, UFSJ - Ensino de Ciências - Ciência é 10!, UFSJ - Informática para professores, UFSJ - Licenciatura em Filosofia, UFSJ - Promoção da Saúde de Crianças e Adolescentes no Contexto da Educação Básica, UFSJ - Robótica e Educação" type="O" num="6" />
    <marker name="VOTUPORANGA - VILA MUNIZ" lat="-20.437193" lng="-49.970757" cursos="UFU - Gestão Pública Municipal, UFU - Administração Pública, UFU - Letras Espanhol, UFU - Letras Inglês, UFF - Planejamento, Implementa??o e Gest?o de EaD, UFF - Tecnologias do ensino de matem?tica" type="O" num="6" />
</markers>